{"businesses":[{"Name":"Yellow Bus","Address":"Βλαχλείδη 5","Price_Range":2,"Stars":4.8,"For_Children":1,"Accessible":0,"Description":"3rd wave coffe lab","Hours":"8-23","Tags":["Brunch","Coffee"]},{"Name":"Say yes!","Address":"Μιχαήλ Αγγέλου 49","Price_Range":3,"Stars":4.5,"For_Children":1,"Accessible":0,"Description":"Ένας all day χώρος στο κέντρο της πόλης.","Hours":"8-24","Tags":["Brunch","Fast Food","Casual Dining","Coffee"]},{"Name":"Chevalier","Address":"Ανδρονίκου Παλαιολόγου 2","Price_Range":2,"Stars":4.7,"For_Children":1,"Accessible":0,"Description":"Ένας βολικός χώρος για να ενδόσεις στις ανάγκες σου για καφε.","Hours":"9-2","Tags":["Brunch","Coffee"]},{"Name":"Jouet","Address":"Ανεξαρτησίας 101","Price_Range":1,"Stars":4.8,"For_Children":1,"Accessible":0,"Description":"Ζεστός χώρος για να παίξεις μπιλιάρδο με τους φίλους σου!","Hours":"16-1","Tags":["Games"]},{"Name":"PLAYHOUSE","Address":"Στρατηγού Σακελλάριου 21","Price_Range":2,"Stars":4.5,"For_Children":1,"Accessible":0,"Description":"Εναλλακτικός τρόπο διασκέδασης, συνδυάζοντας τον καφέ με το παιχνίδι, την μουσική ραδιοφώνου και το ιδιαίτερο περιβάλλον","Hours":"9-1","Tags":["Games","Coffee"]},{"Name":"Maison","Address":"Βλαχλείδη 3","Price_Range":2,"Stars":4.4,"For_Children":1,"Accessible":0,"Description":"Μια πιο κεντρική και χαριτωμένη καφετέρια, με πολλές επιλογές για φαγητό.","Hours":"8-23","Tags":["Brunch","Fast Food","Coffee"]},{"Name":"Cache","Address":"15&Γρηγορίου","Price_Range":1,"Stars":4.6,"For_Children":1,"Accessible":0,"Description":"Ένα για ολα! Καφές, ποτό και φαγητό σε ανταγωνιστικές τιμές.","Hours":"8-1","Tags":["Fast Food","Casual Dining","Bars&Pubs","Coffee"]},{"Name":"Spitaki me thea","Address":"Μαβίλη 16","Price_Range":2,"Stars":4.5,"For_Children":1,"Accessible":0,"Description":"Καλό καφέ για το πρωί, ακόμα καλύτερο ποτό για τις έξαλλες νύχτες.","Hours":"8-2","Tags":["Fast Food","Casual Dining","Bars&Pubs","Coffee"]},{"Name":"Gallery","Address":"Μαβίλη 13","Price_Range":2,"Stars":4.3,"For_Children":1,"Accessible":0,"Description":"Ένα χαλαρό μέρος για άτομα που θέλουν να έχουν θέα τη λίμνη.","Hours":"8-23","Tags":["Fast Food","Casual Dining","Bars&Pubs","Coffee"]},{"Name":"Boccanegra","Address":"Μαβίλη 9","Price_Range":1,"Stars":4.4,"For_Children":1,"Accessible":0,"Description":"Ένα νέο μέρος για να σε μαγέψει με τον μοναδικό του καφέ και το εξαιρετικό του φαγητό.","Hours":"8-6","Tags":["Fast Food","Casual Dining","Coffee"]},{"Name":"Hoxton","Address":"Πλατεία Πάργης 3","Price_Range":1,"Stars":4.2,"For_Children":1,"Accessible":0,"Description":"Ένα μοναδικό καφέ σε μια από τις πιο κεντρικές τοποθεσίες της πόλης.","Hours":"8-24","Tags":["Fast Food","Casual Dining","Bars&Pubs","Coffee"]},{"Name":"Un Mondo Diverso","Address":"Σακκά","Price_Range":2,"Stars":4.3,"For_Children":1,"Accessible":0,"Description":"Κάτι… διαφορετικό, θα έλεγε κανείς. Ειναι οκ.","Hours":"8-3","Tags":["Casual Dining","Bars&Pubs","Brunch","Coffee"]},{"Name":"Ellan","Address":"Μελανίδη 4","Price_Range":2,"Stars":4.7,"For_Children":1,"Accessible":0,"Description":"Ενας κόσμος. Μια λέξη. Ζωντάνια και δροσιά.","Hours":"7-1","Tags":["Fine Dining","Bars&Pubs","Coffee"]},{"Name":"Nott","Address":"Μελανίδη 4","Price_Range":1,"Stars":4.4,"For_Children":1,"Accessible":0,"Description":"Nott, what you think.","Hours":"8-24","Tags":["Bars&Pubs","Brunch","Fine Dining","Coffee"]},{"Name":"Yard","Address":"Κ\/νου Καραμανλή 2","Price_Range":1,"Stars":4.8,"For_Children":1,"Accessible":0,"Description":"Μια αυλή βρήκαμε και την κάναμε καφετέρια","Hours":"8-18","Tags":["Fast Food"," Brunch","Coffee"]},{"Name":"Denoar","Address":"Ανεξαρτησίας 42 (Στοά Μαραμένου)","Price_Range":2,"Stars":4.4,"For_Children":0,"Accessible":0,"Description":"Το denoar αποτελεί µια από τις top επιλογές για αυθεντική διασκεδαση.","Hours":"21-6","Tags":["Nightlife","Bars&Pubs"]},{"Name":"Route 66 Bar","Address":"Στοά Λιάμπεη 7 ","Price_Range":2,"Stars":4.8,"For_Children":0,"Accessible":0,"Description":"Ενα απο τα top μπαρ στα Ιωάννινα, βραβευμένο με τιμιτική σημαία!","Hours":"20-4","Tags":["Nightlife","Bars&Pubs"]},{"Name":"Sauvage Nightclub","Address":"Ανεξαρτησίας 60","Price_Range":2,"Stars":4.7,"For_Children":0,"Accessible":0,"Description":"Καθε φαντασία ενος Κλαμπερ, βγαινει πραγματική. Be sauvage, not average.","Hours":"21-5","Tags":["Nightlife","Bars&Pubs"]},{"Name":"Refren Music Bar","Address":"Ανεξαρτησίας 28","Price_Range":2,"Stars":4.1,"For_Children":0,"Accessible":0,"Description":"Αν εχεται φιλαδιο, μην ανησηχειτε! Και εμεις εχουμε!","Hours":"21-5","Tags":["Nightlife","Bars&Pubs"]},{"Name":"Spitaki Cocktail Bar","Address":"Εθνικής Αντιστάσεως 42","Price_Range":2,"Stars":4.5,"For_Children":0,"Accessible":0,"Description":"Τώρα και χωρις θέα!","Hours":"20-6","Tags":["Nightlife","Bars&Pubs"]},{"Name":"Blue Gin","Address":"Εθνικής Αντιστάσεως 40","Price_Range":2,"Stars":4.7,"For_Children":0,"Accessible":0,"Description":"Ενα μπαρ στην καρδιά της πόλης, και στην καρδιά μας.","Hours":"21-5","Tags":["Nightlife","Bars&Pubs"]},{"Name":"Circus","Address":"Εθνικής Αντιστάσεως 1","Price_Range":2,"Stars":4.4,"For_Children":0,"Accessible":0,"Description":"Ποτό και ατμόσφαιρα σαν κανένα αλλο.","Hours":"21-5","Tags":["Nightlife","Bars&Pubs"]},{"Name":"LT Club Winter","Address":"Πλατεία Ανδρέα Παπανδρέου 12","Price_Range":2,"Stars":3.8,"For_Children":0,"Accessible":0,"Description":"Για τις πιο ξέφαντες βραδιες","Hours":"23-8","Tags":["Nightlife","Bars&Pubs"]},{"Name":"LT Live Club Summer","Address":"Κύποι Παμβώτιδας","Price_Range":2,"Stars":3.7,"For_Children":0,"Accessible":0,"Description":"Για τις πιο ξέφαντες βραδιές κάτω απο τα αστερια.","Hours":"23-8","Tags":["Nightlife","Bars&Pubs"]},{"Name":"Σφεντόνα Bar","Address":"Ανεξαρτησίας 100","Price_Range":1,"Stars":4.5,"For_Children":0,"Accessible":0,"Description":"Alternative βραδιες για γερά νεύρα.","Hours":"21-5","Tags":["Nightlife","Bars&Pubs"]},{"Name":"Arkham Asylum","Address":"Ανεξαρτησίας 79","Price_Range":1,"Stars":4.6,"For_Children":0,"Accessible":0,"Description":"Ποτά σε πολύ καλές τιμές, φοιτητικά πάρτι και ροκ βραδιές.","Hours":"23-8","Tags":["Nightlife","Bars&Pubs"]},{"Name":"Beatnik","Address":"Ανεξαρτησίας 121","Price_Range":1,"Stars":4.5,"For_Children":0,"Accessible":0,"Description":"Bar, Rehearsal Studios , Music Shop , Guitar Repairs ","Hours":"21-8","Tags":["Nightlife","Bars&Pubs"]},{"Name":"Taiga Disco Club","Address":"Ναπολέοντος Ζέρβα 2","Price_Range":2,"Stars":4.2,"For_Children":0,"Accessible":0,"Description":"Για τους πραγματικούς fan της disco.","Hours":"22-6","Tags":["Nightlife","Bars&Pubs"]},{"Name":"Μουσείο Αργυροτεχνείας","Address":"Ακρόπολη Ιτς Καλέ, Κάστρο","Price_Range":1,"Stars":4.8,"For_Children":1,"Accessible":0,"Description":"Διαδραστικό, θεματικό μουσείο για την ηπειρώτικη αργυροτεχνία","Hours":"10-18","Tags":["Education"]},{"Name":"Μουσείο Αλή Πασά και Επαναστατικής Περιόδου","Address":"Νήσος Ιωαννίνων","Price_Range":1,"Stars":4.7,"For_Children":1,"Accessible":0,"Description":"Έργα τέχνης της Ηπειρώτικης ασημουργίας","Hours":"10-18","Tags":["Education"]},{"Name":"Αρχαιολογικό Μουσείο","Address":"25ης Μαρτίου 6","Price_Range":1,"Stars":4.6,"For_Children":1,"Accessible":0,"Description":"Συλλογή κειμηλίων της αρχαίας Ηπείρου, όπως κεραμικά είδη, αγάλματα, νομίσματα και όπλα","Hours":"8-15","Tags":["Education"]},{"Name":"Δημοτική Πινακοθήκη","Address":"Αδαμάντιου Κοραή 1","Price_Range":0,"Stars":4.4,"For_Children":1,"Accessible":0,"Description":"Σχέδια, χαρακτικά και πίνακες ζωγραφικής, προσωπογραφίες, τοπία και ηθογραφικές σκηνές","Hours":"8-15","Tags":["Education"]},{"Name":"Βυζαντινό Μουσείο","Address":"Ακρόπολη Ιτς Καλέ, Κάστρο","Price_Range":1,"Stars":4.5,"For_Children":1,"Accessible":0,"Description":"Προστασία, μελέτη και προβολή έργων τέχνης και αντικειμένων που καλύπτουν την περίοδο από τον 4ο έως τον 19ο αιώνα","Hours":"8-15","Tags":["Education"]},{"Name":"Λαογραφικό Μουσείο \"Κώστας Φρόντζος\"","Address":"Μιχαήλ Αγγέλου 42","Price_Range":1,"Stars":4.5,"For_Children":1,"Accessible":0,"Description":"Εκθέσεις  παραδοσιακών στολών από την Ήπειρο, έργων ασημουργίας και χρυσοχοΐας, έργων κεντητικής και υφαντικής","Hours":"8-15","Tags":["Education"]},{"Name":"Δημοτικό Εθνογραφικό Μουσείο","Address":"Αλεξίου Νούτσου 2","Price_Range":1,"Stars":4.5,"For_Children":1,"Accessible":0,"Description":"Φιλοξενεί τρεις συλλογές, αντιπροσωπευτικές των τριών θρησκευτικών κοινοτήτων της πόλης, της χριστιανικής, της εβραϊκής και της  μουσουλμανικής","Hours":"8-15","Tags":["Education"]},{"Name":"Αρχοντικό Μίσιου","Address":"Ασωπίου 13","Price_Range":0,"Stars":4.6,"For_Children":1,"Accessible":0,"Description":"Ιστορικό διατηρητέο μνημείο με Βασιλικό Διάταγμα του 1936 και αποτελεί χαρακτηριστικό δείγμα της αστικής γιαννιώτικης αρχιτεκτονικής του 19ου αιώνα","Hours":"8-15","Tags":["Education"]},{"Name":"Ίδρυμα Ιωσήφ και Εσθήρ Γκανή","Address":"Σούτσου 26","Price_Range":1,"Stars":4.8,"For_Children":1,"Accessible":0,"Description":"Συμβολή και η συμμετοχή του στις πολιτιστικές και επιστημονικές δραστηριότητες της πόλης των γραμμάτων και των τεχνών","Hours":"8-15","Tags":["Education"]},{"Name":"Πολιτιστικός χώρος ''Δημήτρης Χατζής''","Address":"Παλαιά Σφαγεία","Price_Range":0,"Stars":4.6,"For_Children":1,"Accessible":0,"Description":"Χώρος πολιτισμού: μάθηση, τέχνη και ποιότητα.","Hours":"8-15","Tags":["Education"]},{"Name":"Λίμνη Παμβώτιδα","Address":"Λίμνη Παμβώτιδα","Price_Range":0,"Stars":4.7,"For_Children":1,"Accessible":0,"Description":"Στα καταπράσινα νερα, μπορει κανεις να ευχαριστηθει την τοπικη χλορίδα και πανίδα","Hours":"X","Tags":["Nature"]},{"Name":"Νήσος Ιωαννίνων","Address":"Λίμνη Παμβώτιδα","Price_Range":1,"Stars":4.7,"For_Children":1,"Accessible":0,"Description":"Απο τα κλασσικά πιάτα με βατραχοπόδαρα εως κρυφά εκκλησάκια μέσα στο δάσος. Τα έχει όλα!","Hours":"X","Tags":["Nature"]},{"Name":"Πάρκο Πυρσινέλλα","Address":"Διογένη 8","Price_Range":0,"Stars":3.9,"For_Children":1,"Accessible":0,"Description":"Όμορφο πάρκο, ιδανικό για πικ-νικ και εξωτερικές δραστηριότητες.","Hours":"X","Tags":["Nature"]},{"Name":"Ναυτικός Όμιλος Ιωαννίνων","Address":"Σωτηρίου Στάμου 10","Price_Range":3,"Stars":4.5,"For_Children":1,"Accessible":0,"Description":"Στις εγκαταστάσεις του Ναυτικού Ομίλου Ιωαννίνων λαμβάνει χώρα το Ολυμπιακό άθλημα της κωπηλασίας","Hours":"9-24","Tags":["Nature"]},{"Name":"Άλσος Θεοδωρόπουλου","Address":"Σουλίου 14","Price_Range":0,"Stars":4.5,"For_Children":1,"Accessible":0,"Description":"Ενα όμορφο δάσος για τους λάτρεις της φύσης και τους εξερευνητές.","Hours":"X","Tags":["Nature"]},{"Name":"Πάρκο Ερμηνείας Οικοσυστήματος Λίμνης Παμβώτιδας","Address":"Λεωφ. Κάρολου Παπούλια","Price_Range":0,"Stars":4.3,"For_Children":1,"Accessible":0,"Description":"Το πάρκο προσφέρεται για να γνωρίσει κάποιος και να ενημερωθεί καλύτερα για την Προστατευόμενη Περιοχή και το οικοσύστημα της Λίμνης Παμβώτιδας.","Hours":"X","Tags":["Nature"]},{"Name":"Φolk","Address":"Ζάππα 3","Price_Range":3,"Stars":4.8,"For_Children":1,"Accessible":0,"Description":"Ένα διαφορετικό street food spot στο ιστορικό κέντρο των Ιωαννίνων.","Hours":"20-24","Tags":["Fine Dining"]},{"Name":"Mpailsa","Address":"Ζάππα 7","Price_Range":2,"Stars":4.4,"For_Children":1,"Accessible":0,"Description":"Ζεστή ατμόσφαιρα και καλός μεζές. Το τέλειο μαγαζί για να βγείς για τα[ιουρο με την παρέα σου.","Hours":"20-4","Tags":["Casual Dining"]},{"Name":"Equus","Address":"Ναπολέοντος Ζέρβα 4-6","Price_Range":3,"Stars":4.4,"For_Children":1,"Accessible":0,"Description":"Food and Cocktail","Hours":"9-2","Tags":["Fine Dining"]},{"Name":"Heads or Tails","Address":"Πιρσινελά 2","Price_Range":3,"Stars":4.2,"For_Children":1,"Accessible":0,"Description":"Pizza Restaurant","Hours":"19-5","Tags":["Fine Dining"]},{"Name":"Poco Loco Winter","Address":"Γαριβάλδη 30","Price_Range":3,"Stars":4.5,"For_Children":1,"Accessible":0,"Description":"Mexican Restaurant","Hours":"19-2","Tags":["Fine Dining"]},{"Name":"Poco Loco Summer","Address":"Λεοφόρος Γεωργίου Παπανδρέου","Price_Range":2,"Stars":4.5,"For_Children":1,"Accessible":0,"Description":"Mexican Restaurant","Hours":"19-2","Tags":["Casual Dining"]},{"Name":"Thamon","Address":"Αβέρωφ 63","Price_Range":3,"Stars":4.9,"For_Children":1,"Accessible":0,"Description":"Restaurant - Fine Dining","Hours":"13-23","Tags":["Fine Dining"]},{"Name":"Grandpa's","Address":"Μουλαιμίδου 5","Price_Range":2,"Stars":4.7,"For_Children":1,"Accessible":0,"Description":"Mainstream Kitchen Bar","Hours":"14-23","Tags":["Casual Dining"]},{"Name":"Burger Home","Address":"Μητροπόλεως 1 & Αβέρωφ","Price_Range":2,"Stars":4.5,"For_Children":1,"Accessible":0,"Description":"Divine Burgers at killer prices","Hours":"13-2","Tags":["Casual Dining"]},{"Name":"Pizza Bar","Address":"Ανεξαρτησίας 39","Price_Range":1,"Stars":4.1,"For_Children":1,"Accessible":0,"Description":"Pizza and Loukoumades Restaurant","Hours":"13-2","Tags":["Fast Food"]},{"Name":"Πρεσβεία","Address":"Λεωφόρου Καραμανλή 17","Price_Range":2,"Stars":4.5,"For_Children":1,"Accessible":0,"Description":"Greek and Mediterranean cuisine dishes in a cozy environment","Hours":"13-2","Tags":["Casual Dining"]},{"Name":"The Log","Address":"Στρατηγού Παπάγου 5","Price_Range":3,"Stars":4.7,"For_Children":1,"Accessible":0,"Description":"Steakhouse & Cocktail Bar","Hours":"14-23","Tags":["Fine Dining"]},{"Name":"Μετσοβίτικη Φωλιά","Address":"Αβέρωφ 101","Price_Range":2,"Stars":4.5,"For_Children":1,"Accessible":0,"Description":"Νόστιμα ψητά και κοντοσούβλια. Φιλόξενος και ζεστός χώρος.","Hours":"12-23","Tags":["Casual Dining"]},{"Name":"Μπούμπας - τυροκομικά προιόντα","Address":"Καλλάρη 37","Price_Range":3,"Stars":5.0,"For_Children":1,"Accessible":0,"Description":"Παραδοσιακό τυροπωλείο 42 χρόνων στο παλιό ιστορικό κέντρο","Hours":"8-21","Tags":["Shopping"]},{"Name":"Moschos Silverfamily","Address":"Κατσαντώνη 4","Price_Range":3,"Stars":4.9,"For_Children":1,"Accessible":0,"Description":"Η φιλοσοφία της που εστιάζει στη άρρηκτη σχέση της με τους τεχνίτες της, στη δημιουργία νέων παραδοσιακών συλλογών μέσω του συλλογικού πνεύματος και τον σεβασμό στην τέχνη των προγόνων μας.","Hours":"9-21","Tags":["Shopping"]},{"Name":"Κρύπτη","Address":"Ανεξαρτησίας 69","Price_Range":3,"Stars":5.0,"For_Children":1,"Accessible":0,"Description":"Ένας μικρόκοσμος χειροποίητων αντικειμένων Ελλήνων δημιουργών","Hours":"9-21","Tags":["Shopping"]},{"Name":"Craftlet Handmade Jewellery","Address":"Παπάζογλου 14","Price_Range":3,"Stars":4.9,"For_Children":1,"Accessible":0,"Description":"Our natural jewellery designs are inspired from the natural beauty around us.","Hours":"8-14","Tags":["Shopping"]},{"Name":"ΟΞΥ","Address":"Κατσαντώνη 2 και Αβέρωφ","Price_Range":3,"Stars":5.0,"For_Children":1,"Accessible":1,"Description":"Handmade Jewellery Atelier","Hours":"8-14","Tags":["Shopping"]},{"Name":"ΑΝΕΜΟΙΑ boutique","Address":"Ανεξαρτησίας 5","Price_Range":3,"Stars":5.0,"For_Children":1,"Accessible":0,"Description":"Our goal is to create original, handmade clothes that emphasize the personality of each idividual, combining high quality materials with affordable prices.","Hours":"8-14","Tags":["Shopping"]},{"Name":"ODEON PARALIMNIO","Address":"Paralimnio Fun Park – Βοτανικός","Price_Range":2,"Stars":4.4,"For_Children":1,"Accessible":1,"Description":"Σύγχρονες αίθουσες κινηματογράφου – multiplex και 3D.","Hours":"17-22","Tags":["Movies&Theater"]},{"Name":"Paralimnio Fun Park ","Address":"Λεωφ. Κάρολου Παπούλια","Price_Range":1,"Stars":4.5,"For_Children":1,"Accessible":1,"Description":"Αίθουσα bowling 14 διαδρόμων, billiards, sports café, video games και 2 ποδοσφαιρικά γήπεδα.","Hours":"17-22","Tags":["Games","Movies&Theater"]},{"Name":"Υπαίθριος Παιδότοπος","Address":"Φρόντζου Πολιτεία","Price_Range":2,"Stars":4.8,"For_Children":1,"Accessible":1,"Description":"Όντας χώρος πολιτισμού και αναψυχής, ο παιδότοπος είναι ιδανικός προορισμός για όλη την οικογένεια και αποτελεί μια διαφορετική πρόταση για ξέγνοιαστες στιγμές που μπορείτε να μοιραστείτε με το αγγελούδι σας μέσα στη φύση σε ένα ασφαλή ειδικά διαμορφωμένο χώρο.","Hours":"17-24","Tags":["Games"]},{"Name":"Υπαίθριο Θέατρο Ε.Η.Μ - Φρόντζου","Address":"Ηρακλή Βασιάδη","Price_Range":0,"Stars":4.8,"For_Children":1,"Accessible":0,"Description":"Φτιαγμένο στα πρότυπα των αρχαίων θεάτρων, έχει πέτρινη κατασκευή με ημικυκλική διάταξη κερκίδων και φόντο τα …φώτα της πόλης.","Hours":"12-24","Tags":["Movies&Theater"]},{"Name":"ΔΗ.ΠΕ.ΘΕ. Ιωαννίνων","Address":"Παπάζογλου 5","Price_Range":1,"Stars":4.7,"For_Children":1,"Accessible":0,"Description":"Το ΔΗ.ΠΕ.Θ.Ι. ιδρύθηκε το 1983, ξεκινώντας μαζί με άλλα πέντε περιφερειακά Θέατρα το θεσμό των ΔΗ.ΠΕ.ΘΕ. Αποτελεί τη φυσική συνέχεια του Οργανισμού Ηπειρωτικού Θεάτρου (Ο.Η.Θ.) ο οποίος πρωτοστάτησε στο ανέβασμα επαγγελματικών θεατρικών παραγωγών της ελληνικής περιφέρειας από το 1976.","Hours":"15-24","Tags":["Movies&Theater"]},{"Name":"Θεατρική Συμπαιγνία","Address":"Λεωφ. Αρχιεπισκόπου Μακαρίου 11","Price_Range":1,"Stars":4.7,"For_Children":1,"Accessible":1,"Description":"Η Αστική Μη Κερδοσκοπική εταιρία “Θεατρική Συμπαιγνία” ιδρύθηκε το 2003,  ως μια εταιρία παραγωγής θεατρικών, χοροθεατρικών και μουσικοθεατρικών παραστάσεων. Το 2016 ξεκίνησε τη λειτουργία του θεατρικού εργαστηρίου της, με στόχο τη διδασκαλία υποκριτικής, αυτοσχεδιασμού και θεατρικού παιχνιδιού, τη διοργάνωση σεμιναρίων και την έρευνα και τον πειραματισμό πάνω σε σύγχρονες μεθόδους και τεχνικές όσον αφορά στην τέχνη της υποκριτικής.","Hours":"12-24","Tags":["Movies&Theater"]},{"Name":"Θέατρο Στοάς Ορφέα","Address":"Στοά Ορφέα","Price_Range":1,"Stars":4.6,"For_Children":1,"Accessible":0,"Description":"Καλλιτεχνικό Σωματείο \"Οι Αθεράπευτοι\"","Hours":"12-24","Tags":["Movies&Theater"]},{"Name":"Θέατρο Actina","Address":"Άννας Κομνηνής 8Β","Price_Range":1,"Stars":4.8,"For_Children":1,"Accessible":0,"Description":"Μικρό, συνοικιακό θέατρο και χώρος έκφρασης με μοντέρνες παραστάσεις και πολλά εργαστήρια για όλες τις ηλικίες.","Hours":"12-24","Tags":["Movies&Theater"]}]}